{
    "airports": [
        {
            "name": "Goroka Airport",
            "id": "GKA",
            "Latitude": -6.081689835,
            "Longitude": 145.3919983
        },
        {
            "name": "Madang Airport",
            "id": "MAG",
            "Latitude": -5.207079887,
            "Longitude": 145.7890015
        },
        {
            "name": "Mount Hagen Kagamuga Airport",
            "id": "HGU",
            "Latitude": -5.826789856,
            "Longitude": 144.2960052
        },
        {
            "name": "Nadzab Airport",
            "id": "LAE",
            "Latitude": -6.569803,
            "Longitude": 146.725977
        },
        {
            "name": "Port Moresby Jacksons International Airport",
            "id": "POM",
            "Latitude": -9.443380356,
            "Longitude": 147.2200012
        },
        {
            "name": "Wewak International Airport",
            "id": "WWK",
            "Latitude": -3.583830118,
            "Longitude": 143.6690063
        },
        {
            "name": "Narsarsuaq Airport",
            "id": "UAK",
            "Latitude": 61.16049957,
            "Longitude": -45.42599869
        },
        {
            "name": "Godthaab / Nuuk Airport",
            "id": "GOH",
            "Latitude": 64.19090271,
            "Longitude": -51.67810059
        },
        {
            "name": "Kangerlussuaq Airport",
            "id": "SFJ",
            "Latitude": 67.0122219,
            "Longitude": -50.71160316
        },
        {
            "name": "Thule Air Base",
            "id": "THU",
            "Latitude": 76.53119659,
            "Longitude": -68.70320129
        },
        {
            "name": "Akureyri Airport",
            "id": "AEY",
            "Latitude": 65.66000366,
            "Longitude": -18.0727005
        },
        {
            "name": "Egilsstaï¿½ir Airport",
            "id": "EGS",
            "Latitude": 65.28330231,
            "Longitude": -14.40139961
        },
        {
            "name": "Hornafjï¿½rï¿½ur Airport",
            "id": "HFN",
            "Latitude": 64.295601,
            "Longitude": -15.2272
        },
        {
            "name": "Hï¿½savï¿½k Airport",
            "id": "HZK",
            "Latitude": 65.952301,
            "Longitude": -17.426001
        },
        {
            "name": "ï¿½safjï¿½rï¿½ur Airport",
            "id": "IFJ",
            "Latitude": 66.05809784,
            "Longitude": -23.13529968
        },
        {
            "name": "Keflavik International Airport",
            "id": "KEF",
            "Latitude": 63.98500061,
            "Longitude": -22.60560036
        },
        {
            "name": "Patreksfjï¿½rï¿½ur Airport",
            "id": "PFJ",
            "Latitude": 65.555801,
            "Longitude": -23.965
        },
        {
            "name": "Reykjavik Airport",
            "id": "RKV",
            "Latitude": 64.12999725,
            "Longitude": -21.94059944
        },
        {
            "name": "Siglufjï¿½rï¿½ur Airport",
            "id": "SIJ",
            "Latitude": 66.133301,
            "Longitude": -18.9167
        },
        {
            "name": "Vestmannaeyjar Airport",
            "id": "VEY",
            "Latitude": 63.42430115,
            "Longitude": -20.27890015
        },
        {
            "name": "Sault Ste Marie Airport",
            "id": "YAM",
            "Latitude": 46.48500061,
            "Longitude": -84.50939941
        },
        {
            "name": "St. Anthony Airport",
            "id": "YAY",
            "Latitude": 51.39189911,
            "Longitude": -56.08309937
        },
        {
            "name": "Tofino / Long Beach Airport",
            "id": "YAZ",
            "Latitude": 49.079833,
            "Longitude": -125.775583
        },
        {
            "name": "Kugaaruk Airport",
            "id": "YBB",
            "Latitude": 68.534401,
            "Longitude": -89.808098
        },
        {
            "name": "Baie Comeau Airport",
            "id": "YBC",
            "Latitude": 49.13249969,
            "Longitude": -68.20439911
        },
        {
            "name": "CFB Bagotville",
            "id": "YBG",
            "Latitude": 48.33060074,
            "Longitude": -70.99639893
        },
        {
            "name": "Baker Lake Airport",
            "id": "YBK",
            "Latitude": 64.29889679,
            "Longitude": -96.07779694
        },
        {
            "name": "Campbell River Airport",
            "id": "YBL",
            "Latitude": 49.95080185,
            "Longitude": -125.2710037
        },
        {
            "name": "Brandon Municipal Airport",
            "id": "YBR",
            "Latitude": 49.91,
            "Longitude": -99.951897
        },
        {
            "name": "Cambridge Bay Airport",
            "id": "YCB",
            "Latitude": 69.10810089,
            "Longitude": -105.1380005
        },
        {
            "name": "Nanaimo Airport",
            "id": "YCD",
            "Latitude": 49.05497022,
            "Longitude": -123.8698626
        },
        {
            "name": "Castlegar/West Kootenay Regional Airport",
            "id": "YCG",
            "Latitude": 49.29639816,
            "Longitude": -117.6320038
        },
        {
            "name": "Miramichi Airport",
            "id": "YCH",
            "Latitude": 47.007801,
            "Longitude": -65.449203
        },
        {
            "name": "Charlo Airport",
            "id": "YCL",
            "Latitude": 47.990799,
            "Longitude": -66.330299
        },
        {
            "name": "Kugluktuk Airport",
            "id": "YCO",
            "Latitude": 67.816704,
            "Longitude": -115.143997
        },
        {
            "name": "Coronation Airport",
            "id": "YCT",
            "Latitude": 52.07500076,
            "Longitude": -111.4449997
        },
        {
            "name": "Chilliwack Airport",
            "id": "YCW",
            "Latitude": 49.15280151,
            "Longitude": -121.939003
        },
        {
            "name": "Clyde River Airport",
            "id": "YCY",
            "Latitude": 70.48609924,
            "Longitude": -68.51670074
        },
        {
            "name": "Coral Harbour Airport",
            "id": "YZS",
            "Latitude": 64.19329834,
            "Longitude": -83.35939789
        },
        {
            "name": "Dawson City Airport",
            "id": "YDA",
            "Latitude": 64.04309845,
            "Longitude": -139.128006
        },
        {
            "name": "Burwash Airport",
            "id": "YDB",
            "Latitude": 61.37110138,
            "Longitude": -139.0410004
        },
        {
            "name": "Deer Lake Airport",
            "id": "YDF",
            "Latitude": 49.21080017,
            "Longitude": -57.39139938
        },
        {
            "name": "Dease Lake Airport",
            "id": "YDL",
            "Latitude": 58.42219925,
            "Longitude": -130.0319977
        },
        {
            "name": "Dauphin Barker Airport",
            "id": "YDN",
            "Latitude": 51.10079956,
            "Longitude": -100.052002
        },
        {
            "name": "Dawson Creek Airport",
            "id": "YDQ",
            "Latitude": 55.74229813,
            "Longitude": -120.1829987
        },
        {
            "name": "Edmonton International Airport",
            "id": "YEG",
            "Latitude": 53.30970001,
            "Longitude": -113.5800018
        },
        {
            "name": "Arviat Airport",
            "id": "YEK",
            "Latitude": 61.09420013,
            "Longitude": -94.07080078
        },
        {
            "name": "Estevan Airport",
            "id": "YEN",
            "Latitude": 49.21030045,
            "Longitude": -102.9660034
        },
        {
            "name": "Edson Airport",
            "id": "YET",
            "Latitude": 53.57889938,
            "Longitude": -116.4649963
        },
        {
            "name": "Eureka Airport",
            "id": "YEU",
            "Latitude": 79.99469757,
            "Longitude": -85.81420136
        },
        {
            "name": "Inuvik Mike Zubko Airport",
            "id": "YEV",
            "Latitude": 68.30419922,
            "Longitude": -133.4830017
        },
        {
            "name": "Iqaluit Airport",
            "id": "YFB",
            "Latitude": 63.756402,
            "Longitude": -68.555801
        },
        {
            "name": "Fredericton Airport",
            "id": "YFC",
            "Latitude": 45.8689003,
            "Longitude": -66.53720093
        },
        {
            "name": "Forestville Airport",
            "id": "YFE",
            "Latitude": 48.74610138,
            "Longitude": -69.09719849
        },
        {
            "name": "Flin Flon Airport",
            "id": "YFO",
            "Latitude": 54.67810059,
            "Longitude": -101.6819992
        },
        {
            "name": "Fort Resolution Airport",
            "id": "YFR",
            "Latitude": 61.18080139,
            "Longitude": -113.6900024
        },
        {
            "name": "Fort Simpson Airport",
            "id": "YFS",
            "Latitude": 61.7602005,
            "Longitude": -121.2369995
        },
        {
            "name": "Kingston Norman Rogers Airport",
            "id": "YGK",
            "Latitude": 44.22529984,
            "Longitude": -76.59690094
        },
        {
            "name": "La Grande Riviï¿½re Airport",
            "id": "YGL",
            "Latitude": 53.62530136,
            "Longitude": -77.70420074
        },
        {
            "name": "Gaspï¿½ (Michel-Pouliot) Airport",
            "id": "YGP",
            "Latitude": 48.77529907,
            "Longitude": -64.47859955
        },
        {
            "name": "Geraldton Greenstone Regional Airport",
            "id": "YGQ",
            "Latitude": 49.77830124,
            "Longitude": -86.93939972
        },
        {
            "name": "ï¿½les-de-la-Madeleine Airport",
            "id": "YGR",
            "Latitude": 47.42470169,
            "Longitude": -61.77809906
        },
        {
            "name": "Hudson Bay Airport",
            "id": "YHB",
            "Latitude": 52.81669998,
            "Longitude": -102.310997
        },
        {
            "name": "Dryden Regional Airport",
            "id": "YHD",
            "Latitude": 49.831699,
            "Longitude": -92.744202
        },
        {
            "name": "Ulukhaktok Holman Airport",
            "id": "YHI",
            "Latitude": 70.76280212,
            "Longitude": -117.8059998
        },
        {
            "name": "Gjoa Haven Airport",
            "id": "YHK",
            "Latitude": 68.63559723,
            "Longitude": -95.84970093
        },
        {
            "name": "John C. Munro Hamilton International Airport",
            "id": "YHM",
            "Latitude": 43.17359924,
            "Longitude": -79.93499756
        },
        {
            "name": "Montrï¿½al / Saint-Hubert Airport",
            "id": "YHU",
            "Latitude": 45.51750183,
            "Longitude": -73.41690063
        },
        {
            "name": "Hay River / Merlyn Carter Airport",
            "id": "YHY",
            "Latitude": 60.83969879,
            "Longitude": -115.7829971
        },
        {
            "name": "Halifax / Stanfield International Airport",
            "id": "YHZ",
            "Latitude": 44.88079834,
            "Longitude": -63.50859833
        },
        {
            "name": "Atikokan Municipal Airport",
            "id": "YIB",
            "Latitude": 48.77389908,
            "Longitude": -91.63860321
        },
        {
            "name": "Pond Inlet Airport",
            "id": "YIO",
            "Latitude": 72.6832962,
            "Longitude": -77.96669769
        },
        {
            "name": "St Jean Airport",
            "id": "YJN",
            "Latitude": 45.29439926,
            "Longitude": -73.28109741
        },
        {
            "name": "Stephenville Airport",
            "id": "YJT",
            "Latitude": 48.5442009,
            "Longitude": -58.54999924
        },
        {
            "name": "Kamloops Airport",
            "id": "YKA",
            "Latitude": 50.70220184,
            "Longitude": -120.4440002
        },
        {
            "name": "Waterloo Airport",
            "id": "YKF",
            "Latitude": 43.46080017,
            "Longitude": -80.37860107
        },
        {
            "name": "Schefferville Airport",
            "id": "YKL",
            "Latitude": 54.80530167,
            "Longitude": -66.80529785
        },
        {
            "name": "Kindersley Airport",
            "id": "YKY",
            "Latitude": 51.51750183,
            "Longitude": -109.1809998
        },
        {
            "name": "Buttonville Municipal Airport",
            "id": "YKZ",
            "Latitude": 43.86220169,
            "Longitude": -79.37000275
        },
        {
            "name": "Chapleau Airport",
            "id": "YLD",
            "Latitude": 47.81999969,
            "Longitude": -83.34670258
        },
        {
            "name": "Meadow Lake Airport",
            "id": "YLJ",
            "Latitude": 54.12530136,
            "Longitude": -108.5230026
        },
        {
            "name": "Lloydminster Airport",
            "id": "YLL",
            "Latitude": 53.30920029,
            "Longitude": -110.072998
        },
        {
            "name": "Alert Airport",
            "id": "YLT",
            "Latitude": 82.51779938,
            "Longitude": -62.2806015
        },
        {
            "name": "Kelowna International Airport",
            "id": "YLW",
            "Latitude": 49.95610046,
            "Longitude": -119.3779984
        },
        {
            "name": "Mayo Airport",
            "id": "YMA",
            "Latitude": 63.61640167,
            "Longitude": -135.8679962
        },
        {
            "name": "Moose Jaw Air Vice Marshal C. M. McEwen Airport",
            "id": "YMJ",
            "Latitude": 50.33029938,
            "Longitude": -105.5589981
        },
        {
            "name": "Fort McMurray Airport",
            "id": "YMM",
            "Latitude": 56.65330124,
            "Longitude": -111.2220001
        },
        {
            "name": "Moosonee Airport",
            "id": "YMO",
            "Latitude": 51.29109955,
            "Longitude": -80.60780334
        },
        {
            "name": "Maniwaki Airport",
            "id": "YMW",
            "Latitude": 46.27280045,
            "Longitude": -75.99060059
        },
        {
            "name": "Montreal International (Mirabel) Airport",
            "id": "YMX",
            "Latitude": 45.679501,
            "Longitude": -74.038696
        },
        {
            "name": "Natashquan Airport",
            "id": "YNA",
            "Latitude": 50.18999863,
            "Longitude": -61.78919983
        },
        {
            "name": "Ottawa / Gatineau Airport",
            "id": "YND",
            "Latitude": 45.52170181,
            "Longitude": -75.56359863
        },
        {
            "name": "Matagami Airport",
            "id": "YNM",
            "Latitude": 49.76169968,
            "Longitude": -77.80280304
        },
        {
            "name": "Old Crow Airport",
            "id": "YOC",
            "Latitude": 67.57060242,
            "Longitude": -139.8390045
        },
        {
            "name": "CFB Cold Lake",
            "id": "YOD",
            "Latitude": 54.40499878,
            "Longitude": -110.2789993
        },
        {
            "name": "High Level Airport",
            "id": "YOJ",
            "Latitude": 58.62139893,
            "Longitude": -117.1650009
        },
        {
            "name": "Ottawa Macdonald-Cartier International Airport",
            "id": "YOW",
            "Latitude": 45.32249832,
            "Longitude": -75.66919708
        },
        {
            "name": "Prince Albert Glass Field",
            "id": "YPA",
            "Latitude": 53.21419907,
            "Longitude": -105.6729965
        },
        {
            "name": "Peace River Airport",
            "id": "YPE",
            "Latitude": 56.226898,
            "Longitude": -117.446999
        },
        {
            "name": "Southport Airport",
            "id": "YPG",
            "Latitude": 49.903099,
            "Longitude": -98.273817
        },
        {
            "name": "Pickle Lake Airport",
            "id": "YPL",
            "Latitude": 51.44639969,
            "Longitude": -90.21420288
        },
        {
            "name": "Port Menier Airport",
            "id": "YPN",
            "Latitude": 49.83639908,
            "Longitude": -64.28859711
        },
        {
            "name": "Peterborough Airport",
            "id": "YPQ",
            "Latitude": 44.22999954,
            "Longitude": -78.36329651
        },
        {
            "name": "Prince Rupert Airport",
            "id": "YPR",
            "Latitude": 54.28609848,
            "Longitude": -130.4450073
        },
        {
            "name": "Fort Chipewyan Airport",
            "id": "YPY",
            "Latitude": 58.76720047,
            "Longitude": -111.1169968
        },
        {
            "name": "Muskoka Airport",
            "id": "YQA",
            "Latitude": 44.97470093,
            "Longitude": -79.30329895
        },
        {
            "name": "Quebec Jean Lesage International Airport",
            "id": "YQB",
            "Latitude": 46.7911,
            "Longitude": -71.393303
        },
        {
            "name": "Red Deer Regional Airport",
            "id": "YQF",
            "Latitude": 52.18220139,
            "Longitude": -113.8939972
        },
        {
            "name": "Windsor Airport",
            "id": "YQG",
            "Latitude": 42.27560043,
            "Longitude": -82.95559692
        },
        {
            "name": "Watson Lake Airport",
            "id": "YQH",
            "Latitude": 60.11640167,
            "Longitude": -128.8220062
        },
        {
            "name": "Kenora Airport",
            "id": "YQK",
            "Latitude": 49.78829956,
            "Longitude": -94.36309814
        },
        {
            "name": "Lethbridge County Airport",
            "id": "YQL",
            "Latitude": 49.63029861,
            "Longitude": -112.8000031
        },
        {
            "name": "Greater Moncton International Airport",
            "id": "YQM",
            "Latitude": 46.11220169,
            "Longitude": -64.6785965
        },
        {
            "name": "Comox Airport",
            "id": "YQQ",
            "Latitude": 49.71080017,
            "Longitude": -124.887001
        },
        {
            "name": "Regina International Airport",
            "id": "YQR",
            "Latitude": 50.43190002,
            "Longitude": -104.6660004
        },
        {
            "name": "Thunder Bay Airport",
            "id": "YQT",
            "Latitude": 48.37189865,
            "Longitude": -89.32389832
        },
        {
            "name": "Grande Prairie Airport",
            "id": "YQU",
            "Latitude": 55.17969894,
            "Longitude": -118.8850021
        },
        {
            "name": "Yorkton Municipal Airport",
            "id": "YQV",
            "Latitude": 51.26470184,
            "Longitude": -102.461998
        },
        {
            "name": "North Battleford Airport",
            "id": "YQW",
            "Latitude": 52.76919937,
            "Longitude": -108.2440033
        },
        {
            "name": "Gander International Airport",
            "id": "YQX",
            "Latitude": 48.93690109,
            "Longitude": -54.56809998
        },
        {
            "name": "Sydney / J.A. Douglas McCurdy Airport",
            "id": "YQY",
            "Latitude": 46.1614,
            "Longitude": -60.047798
        },
        {
            "name": "Quesnel Airport",
            "id": "YQZ",
            "Latitude": 53.02610016,
            "Longitude": -122.5100021
        },
        {
            "name": "Resolute Bay Airport",
            "id": "YRB",
            "Latitude": 74.71690369,
            "Longitude": -94.9693985
        },
        {
            "name": "Riviï¿½re-du-Loup Airport",
            "id": "YRI",
            "Latitude": 47.76440048,
            "Longitude": -69.58470154
        },
        {
            "name": "Roberval Airport",
            "id": "YRJ",
            "Latitude": 48.52000046,
            "Longitude": -72.26560211
        },
        {
            "name": "Rocky Mountain House Airport",
            "id": "YRM",
            "Latitude": 52.42969894,
            "Longitude": -114.9039993
        },
        {
            "name": "Rankin Inlet Airport",
            "id": "YRT",
            "Latitude": 62.81140137,
            "Longitude": -92.11579895
        },
        {
            "name": "Sudbury Airport",
            "id": "YSB",
            "Latitude": 46.625,
            "Longitude": -80.79889679
        },
        {
            "name": "Sherbrooke Airport",
            "id": "YSC",
            "Latitude": 45.43859863,
            "Longitude": -71.69139862
        },
        {
            "name": "Saint John Airport",
            "id": "YSJ",
            "Latitude": 45.31610107,
            "Longitude": -65.89029694
        },
        {
            "name": "Fort Smith Airport",
            "id": "YSM",
            "Latitude": 60.02030182,
            "Longitude": -111.961998
        },
        {
            "name": "Nanisivik Airport",
            "id": "YSR",
            "Latitude": 72.982201,
            "Longitude": -84.613602
        },
        {
            "name": "Summerside Airport",
            "id": "YSU",
            "Latitude": 46.44060135,
            "Longitude": -63.83359909
        },
        {
            "name": "Sachs Harbour (David Nasogaluak Jr. Saaryuaq) Airport",
            "id": "YSY",
            "Latitude": 71.99389648,
            "Longitude": -125.2429962
        },
        {
            "name": "Cape Dorset Airport",
            "id": "YTE",
            "Latitude": 64.23000336,
            "Longitude": -76.52670288
        },
        {
            "name": "Thompson Airport",
            "id": "YTH",
            "Latitude": 55.80110168,
            "Longitude": -97.86419678
        },
        {
            "name": "CFB Trenton",
            "id": "YTR",
            "Latitude": 44.1189003,
            "Longitude": -77.52809906
        },
        {
            "name": "Timmins/Victor M. Power",
            "id": "YTS",
            "Latitude": 48.56969833,
            "Longitude": -81.37670136
        },
        {
            "name": "Billy Bishop Toronto City Centre Airport",
            "id": "YTZ",
            "Latitude": 43.627499,
            "Longitude": -79.396202
        },
        {
            "name": "Tuktoyaktuk Airport",
            "id": "YUB",
            "Latitude": 69.4332962,
            "Longitude": -133.026001
        },
        {
            "name": "Montreal / Pierre Elliott Trudeau International Airport",
            "id": "YUL",
            "Latitude": 45.47060013,
            "Longitude": -73.74079895
        },
        {
            "name": "Repulse Bay Airport",
            "id": "YUT",
            "Latitude": 66.52140045,
            "Longitude": -86.22470093
        },
        {
            "name": "Hall Beach Airport",
            "id": "YUX",
            "Latitude": 68.77610016,
            "Longitude": -81.2425
        },
        {
            "name": "Rouyn Noranda Airport",
            "id": "YUY",
            "Latitude": 48.20610046,
            "Longitude": -78.83560181
        },
        {
            "name": "La Ronge Airport",
            "id": "YVC",
            "Latitude": 55.15140152,
            "Longitude": -105.262001
        },
        {
            "name": "Vermilion Airport",
            "id": "YVG",
            "Latitude": 53.35580063,
            "Longitude": -110.8239975
        },
        {
            "name": "Qikiqtarjuaq Airport",
            "id": "YVM",
            "Latitude": 67.54579926,
            "Longitude": -64.03140259
        },
        {
            "name": "Val-d'Or Airport",
            "id": "YVO",
            "Latitude": 48.05329895,
            "Longitude": -77.78279877
        },
        {
            "name": "Kuujjuaq Airport",
            "id": "YVP",
            "Latitude": 58.09609985,
            "Longitude": -68.42690277
        },
        {
            "name": "Norman Wells Airport",
            "id": "YVQ",
            "Latitude": 65.28160095,
            "Longitude": -126.7979965
        },
        {
            "name": "Vancouver International Airport",
            "id": "YVR",
            "Latitude": 49.19390106,
            "Longitude": -123.1839981
        },
        {
            "name": "Buffalo Narrows Airport",
            "id": "YVT",
            "Latitude": 55.84189987,
            "Longitude": -108.4179993
        },
        {
            "name": "Wiarton Airport",
            "id": "YVV",
            "Latitude": 44.7458,
            "Longitude": -81.107201
        },
        {
            "name": "Petawawa Airport",
            "id": "YWA",
            "Latitude": 45.95220184,
            "Longitude": -77.31919861
        },
        {
            "name": "Winnipeg / James Armstrong Richardson International Airport",
            "id": "YWG",
            "Latitude": 49.90999985,
            "Longitude": -97.23989868
        },
        {
            "name": "Wabush Airport",
            "id": "YWK",
            "Latitude": 52.9219017,
            "Longitude": -66.86440277
        },
        {
            "name": "Williams Lake Airport",
            "id": "YWL",
            "Latitude": 52.18310165,
            "Longitude": -122.0540009
        },
        {
            "name": "Wrigley Airport",
            "id": "YWY",
            "Latitude": 63.20940018,
            "Longitude": -123.4369965
        },
        {
            "name": "Cranbrook/Canadian Rockies International Airport",
            "id": "YXC",
            "Latitude": 49.6108017,
            "Longitude": -115.7819977
        },
        {
            "name": "Edmonton City Centre (Blatchford Field) Airport",
            "id": "YXD",
            "Latitude": 53.57249832,
            "Longitude": -113.5210037
        },
        {
            "name": "Saskatoon John G. Diefenbaker International Airport",
            "id": "YXE",
            "Latitude": 52.17079926,
            "Longitude": -106.6999969
        },
        {
            "name": "Medicine Hat Airport",
            "id": "YXH",
            "Latitude": 50.01890182,
            "Longitude": -110.7210007
        },
        {
            "name": "Fort St John Airport",
            "id": "YXJ",
            "Latitude": 56.23809814,
            "Longitude": -120.7399979
        },
        {
            "name": "Sioux Lookout Airport",
            "id": "YXL",
            "Latitude": 50.11389923,
            "Longitude": -91.90529633
        },
        {
            "name": "Pangnirtung Airport",
            "id": "YXP",
            "Latitude": 66.14499664,
            "Longitude": -65.71360016
        },
        {
            "name": "Earlton (Timiskaming Regional) Airport",
            "id": "YXR",
            "Latitude": 47.69740065,
            "Longitude": -79.84734535
        },
        {
            "name": "Prince George Airport",
            "id": "YXS",
            "Latitude": 53.88940048,
            "Longitude": -122.6790009
        },
        {
            "name": "Northwest Regional Airport Terrace-Kitimat",
            "id": "YXT",
            "Latitude": 54.468498,
            "Longitude": -128.576009
        },
        {
            "name": "London Airport",
            "id": "YXU",
            "Latitude": 43.035599,
            "Longitude": -81.1539
        },
        {
            "name": "Abbotsford Airport",
            "id": "YXX",
            "Latitude": 49.02529907,
            "Longitude": -122.3610001
        },
        {
            "name": "Whitehorse / Erik Nielsen International Airport",
            "id": "YXY",
            "Latitude": 60.70959854,
            "Longitude": -135.0670013
        },
        {
            "name": "North Bay Jack Garland Airport",
            "id": "YYB",
            "Latitude": 46.363602,
            "Longitude": -79.422798
        },
        {
            "name": "Calgary International Airport",
            "id": "YYC",
            "Latitude": 51.11389923,
            "Longitude": -114.0199966
        },
        {
            "name": "Smithers Airport",
            "id": "YYD",
            "Latitude": 54.8246994,
            "Longitude": -127.1829987
        },
        {
            "name": "Fort Nelson Airport",
            "id": "YYE",
            "Latitude": 58.83639908,
            "Longitude": -122.5970001
        },
        {
            "name": "Penticton Airport",
            "id": "YYF",
            "Latitude": 49.46310043,
            "Longitude": -119.6019974
        },
        {
            "name": "Charlottetown Airport",
            "id": "YYG",
            "Latitude": 46.29000092,
            "Longitude": -63.12110138
        },
        {
            "name": "Taloyoak Airport",
            "id": "YYH",
            "Latitude": 69.54669952,
            "Longitude": -93.5766983
        },
        {
            "name": "Victoria International Airport",
            "id": "YYJ",
            "Latitude": 48.64690018,
            "Longitude": -123.4260025
        },
        {
            "name": "Lynn Lake Airport",
            "id": "YYL",
            "Latitude": 56.86389923,
            "Longitude": -101.0759964
        },
        {
            "name": "Swift Current Airport",
            "id": "YYN",
            "Latitude": 50.29190063,
            "Longitude": -107.6910019
        },
        {
            "name": "Churchill Airport",
            "id": "YYQ",
            "Latitude": 58.73920059,
            "Longitude": -94.06500244
        },
        {
            "name": "Goose Bay Airport",
            "id": "YYR",
            "Latitude": 53.31919861,
            "Longitude": -60.42580032
        },
        {
            "name": "St. John's International Airport",
            "id": "YYT",
            "Latitude": 47.61859894,
            "Longitude": -52.75189972
        },
        {
            "name": "Kapuskasing Airport",
            "id": "YYU",
            "Latitude": 49.41389847,
            "Longitude": -82.46749878
        },
        {
            "name": "Armstrong Airport",
            "id": "YYW",
            "Latitude": 50.29029846,
            "Longitude": -88.90969849
        },
        {
            "name": "Mont Joli Airport",
            "id": "YYY",
            "Latitude": 48.60860062,
            "Longitude": -68.20809937
        },
        {
            "name": "Lester B. Pearson International Airport",
            "id": "YYZ",
            "Latitude": 43.67720032,
            "Longitude": -79.63059998
        },
        {
            "name": "Downsview Airport",
            "id": "YZD",
            "Latitude": 43.74250031,
            "Longitude": -79.46559906
        },
        {
            "name": "Gore Bay Manitoulin Airport",
            "id": "YZE",
            "Latitude": 45.88529968,
            "Longitude": -82.56780243
        },
        {
            "name": "Yellowknife Airport",
            "id": "YZF",
            "Latitude": 62.46279907,
            "Longitude": -114.4400024
        },
        {
            "name": "Slave Lake Airport",
            "id": "YZH",
            "Latitude": 55.29309845,
            "Longitude": -114.7770004
        },
        {
            "name": "Sandspit Airport",
            "id": "YZP",
            "Latitude": 53.25429916,
            "Longitude": -131.8139954
        },
        {
            "name": "Chris Hadfield Airport",
            "id": "YZR",
            "Latitude": 42.99940109,
            "Longitude": -82.30889893
        },
        {
            "name": "Port Hardy Airport",
            "id": "YZT",
            "Latitude": 50.68059921,
            "Longitude": -127.3669968
        },
        {
            "name": "Whitecourt Airport",
            "id": "YZU",
            "Latitude": 54.14390182,
            "Longitude": -115.7870026
        },
        {
            "name": "Sept-ï¿½les Airport",
            "id": "YZV",
            "Latitude": 50.22330093,
            "Longitude": -66.26560211
        },
        {
            "name": "Teslin Airport",
            "id": "YZW",
            "Latitude": 60.17279816,
            "Longitude": -132.7429962
        },
        {
            "name": "CFB Greenwood",
            "id": "YZX",
            "Latitude": 44.9844017,
            "Longitude": -64.91690063
        },
        {
            "name": "Faro Airport",
            "id": "ZFA",
            "Latitude": 62.20750046,
            "Longitude": -133.3760071
        },
        {
            "name": "Fort Mcpherson Airport",
            "id": "ZFM",
            "Latitude": 67.40750122,
            "Longitude": -134.8609924
        },
        {
            "name": "Blida Airport",
            "id": "QLD",
            "Latitude": 36.50360107,
            "Longitude": 2.814169884
        },
        {
            "name": "Bou Saada Airport",
            "id": "BUJ",
            "Latitude": 35.33250046,
            "Longitude": 4.206389904
        },
        {
            "name": "Soummam Airport",
            "id": "BJA",
            "Latitude": 36.7120018,
            "Longitude": 5.069920063
        },
        {
            "name": "Houari Boumediene Airport",
            "id": "ALG",
            "Latitude": 36.69100189,
            "Longitude": 3.215409994
        },
        {
            "name": "Djanet Inedbirene Airport",
            "id": "DJG",
            "Latitude": 24.292801,
            "Longitude": 9.45244
        },
        {
            "name": "Illizi Takhamalt Airport",
            "id": "VVZ",
            "Latitude": 26.7234993,
            "Longitude": 8.622650146
        },
        {
            "name": "Aguenar ï¿½ Hadj Bey Akhamok Airport",
            "id": "TMR",
            "Latitude": 22.81150055,
            "Longitude": 5.451079845
        },
        {
            "name": "Jijel Ferhat Abbas Airport",
            "id": "GJL",
            "Latitude": 36.79510117,
            "Longitude": 5.87361002
        },
        {
            "name": "Mecheria Airport",
            "id": "MZW",
            "Latitude": 33.53590012,
            "Longitude": -0.242353007
        },
        {
            "name": "Rabah Bitat Airport",
            "id": "AAE",
            "Latitude": 36.822201,
            "Longitude": 7.809174
        },
        {
            "name": "Mohamed Boudiaf International Airport",
            "id": "CZL",
            "Latitude": 36.27600098,
            "Longitude": 6.620389938
        },
        {
            "name": "Cheikh Larbi Tï¿½bessi Airport",
            "id": "TEE",
            "Latitude": 35.43159866,
            "Longitude": 8.12071991
        },
        {
            "name": "Hassi R'Mel Airport",
            "id": "HRM",
            "Latitude": 32.93040085,
            "Longitude": 3.311539888
        },
        {
            "name": "Bou Chekif Airport",
            "id": "TID",
            "Latitude": 35.34109879,
            "Longitude": 1.463150024
        },
        {
            "name": "Tindouf Airport",
            "id": "TIN",
            "Latitude": 27.7003994,
            "Longitude": -8.167099953
        },
        {
            "name": "Ech Cheliff Airport",
            "id": "CFK",
            "Latitude": 36.21269989,
            "Longitude": 1.331769943
        },
        {
            "name": "Tafaraoui Airport",
            "id": "TAF",
            "Latitude": 35.54240036,
            "Longitude": -0.532278001
        },
        {
            "name": "Zenata ï¿½ Messali El Hadj Airport",
            "id": "TLM",
            "Latitude": 35.01670074,
            "Longitude": -1.450000048
        },
        {
            "name": "Es Senia Airport",
            "id": "ORN",
            "Latitude": 35.62390137,
            "Longitude": -0.621182978
        },
        {
            "name": "Sidi Bel Abbes Airport",
            "id": "BFW",
            "Latitude": 35.17179871,
            "Longitude": -0.593275011
        },
        {
            "name": "Ghriss Airport",
            "id": "MUW",
            "Latitude": 35.20769882,
            "Longitude": 0.147141993
        },
        {
            "name": "Touat Cheikh Sidi Mohamed Belkebir Airport",
            "id": "AZR",
            "Latitude": 27.83760071,
            "Longitude": -0.186414003
        },
        {
            "name": "Biskra Airport",
            "id": "BSK",
            "Latitude": 34.79330063,
            "Longitude": 5.738230228
        },
        {
            "name": "El Golea Airport",
            "id": "ELG",
            "Latitude": 30.57130051,
            "Longitude": 2.859590054
        },
        {
            "name": "Noumï¿½rat - Moufdi Zakaria Airport",
            "id": "GHA",
            "Latitude": 32.38410187,
            "Longitude": 3.79411006
        },
        {
            "name": "Oued Irara Airport",
            "id": "HME",
            "Latitude": 31.67300034,
            "Longitude": 6.140439987
        },
        {
            "name": "In Salah Airport",
            "id": "INZ",
            "Latitude": 27.25099945,
            "Longitude": 2.512020111
        },
        {
            "name": "Touggourt Sidi Madhi Airport",
            "id": "TGR",
            "Latitude": 33.06779861,
            "Longitude": 6.088669777
        },
        {
            "name": "Laghouat Airport",
            "id": "LOO",
            "Latitude": 33.76440048,
            "Longitude": 2.928339958
        },
        {
            "name": "Timimoun Airport",
            "id": "TMX",
            "Latitude": 29.2371006,
            "Longitude": 0.276033014
        },
        {
            "name": "Ain el Beida Airport",
            "id": "OGX",
            "Latitude": 31.91720009,
            "Longitude": 5.412779808
        },
        {
            "name": "In Amï¿½nas Airport",
            "id": "IAM",
            "Latitude": 28.0515,
            "Longitude": 9.64291
        },
        {
            "name": "Cadjehoun Airport",
            "id": "COO",
            "Latitude": 6.357230186,
            "Longitude": 2.384350061
        },
        {
            "name": "Ouagadougou Airport",
            "id": "OUA",
            "Latitude": 12.3532,
            "Longitude": -1.51242
        },
        {
            "name": "Bobo Dioulasso Airport",
            "id": "BOY",
            "Latitude": 11.16009998,
            "Longitude": -4.33096981
        },
        {
            "name": "Kotoka International Airport",
            "id": "ACC",
            "Latitude": 5.6051898,
            "Longitude": -0.166786
        },
        {
            "name": "Tamale Airport",
            "id": "TML",
            "Latitude": 9.557189941,
            "Longitude": -0.863214016
        },
        {
            "name": "Sunyani Airport",
            "id": "NYI",
            "Latitude": 7.361830235,
            "Longitude": -2.328759909
        },
        {
            "name": "Takoradi Airport",
            "id": "TKD",
            "Latitude": 4.89605999,
            "Longitude": -1.774760008
        },
        {
            "name": "Port Bouet Airport",
            "id": "ABJ",
            "Latitude": 5.261390209,
            "Longitude": -3.926290035
        },
        {
            "name": "Bouakï¿½ Airport",
            "id": "BYK",
            "Latitude": 7.738800049,
            "Longitude": -5.07366991
        },
        {
            "name": "Daloa Airport",
            "id": "DJO",
            "Latitude": 6.792809963,
            "Longitude": -6.473189831
        },
        {
            "name": "Korhogo Airport",
            "id": "HGO",
            "Latitude": 9.387180328,
            "Longitude": -5.556660175
        },
        {
            "name": "Man Airport",
            "id": "MJC",
            "Latitude": 7.272069931,
            "Longitude": -7.587359905
        },
        {
            "name": "San Pedro Airport",
            "id": "SPY",
            "Latitude": 4.746719837,
            "Longitude": -6.660820007
        },
        {
            "name": "Yamoussoukro Airport",
            "id": "ASK",
            "Latitude": 6.903170109,
            "Longitude": -5.365580082
        },
        {
            "name": "Nnamdi Azikiwe International Airport",
            "id": "ABV",
            "Latitude": 9.006790161,
            "Longitude": 7.263169765
        },
        {
            "name": "Akure Airport",
            "id": "AKR",
            "Latitude": 7.246739864,
            "Longitude": 5.301010132
        },
        {
            "name": "Benin Airport",
            "id": "BNI",
            "Latitude": 6.316979885,
            "Longitude": 5.599500179
        },
        {
            "name": "Margaret Ekpo International Airport",
            "id": "CBQ",
            "Latitude": 4.976019859,
            "Longitude": 8.347200394
        },
        {
            "name": "Akanu Ibiam International Airport",
            "id": "ENU",
            "Latitude": 6.474269867,
            "Longitude": 7.56196022
        },
        {
            "name": "Ibadan Airport",
            "id": "IBA",
            "Latitude": 7.362460136,
            "Longitude": 3.978329897
        },
        {
            "name": "Ilorin International Airport",
            "id": "ILR",
            "Latitude": 8.440210342,
            "Longitude": 4.493919849
        },
        {
            "name": "Yakubu Gowon Airport",
            "id": "JOS",
            "Latitude": 9.639829636,
            "Longitude": 8.869050026
        },
        {
            "name": "Kaduna Airport",
            "id": "KAD",
            "Latitude": 10.6960001,
            "Longitude": 7.320109844
        },
        {
            "name": "Mallam Aminu International Airport",
            "id": "KAN",
            "Latitude": 12.0476,
            "Longitude": 8.52462
        },
        {
            "name": "Maiduguri International Airport",
            "id": "MIU",
            "Latitude": 11.85529995,
            "Longitude": 13.08090019
        },
        {
            "name": "Makurdi Airport",
            "id": "MDI",
            "Latitude": 7.70388,
            "Longitude": 8.61394
        },
        {
            "name": "Murtala Muhammed International Airport",
            "id": "LOS",
            "Latitude": 6.577370167,
            "Longitude": 3.321160078
        },
        {
            "name": "Minna Airport",
            "id": "MXJ",
            "Latitude": 9.652170181,
            "Longitude": 6.462259769
        },
        {
            "name": "Port Harcourt International Airport",
            "id": "PHC",
            "Latitude": 5.015490055,
            "Longitude": 6.949590206
        },
        {
            "name": "Sadiq Abubakar III International Airport",
            "id": "SKO",
            "Latitude": 12.91629982,
            "Longitude": 5.207190037
        },
        {
            "name": "Yola Airport",
            "id": "YOL",
            "Latitude": 9.25755024,
            "Longitude": 12.43039989
        },
        {
            "name": "Zaria Airport",
            "id": "ZAR",
            "Latitude": 11.1302,
            "Longitude": 7.68581
        },
        {
            "name": "Maradi Airport",
            "id": "MFQ",
            "Latitude": 13.50249958,
            "Longitude": 7.126749992
        },
        {
            "name": "Diori Hamani International Airport",
            "id": "NIM",
            "Latitude": 13.4815,
            "Longitude": 2.18361
        },
        {
            "name": "Tahoua Airport",
            "id": "THZ",
            "Latitude": 14.8757,
            "Longitude": 5.265359879
        },
        {
            "name": "Mano Dayak International Airport",
            "id": "AJY",
            "Latitude": 16.9659996,
            "Longitude": 8.000109673
        },
        {
            "name": "Zinder Airport",
            "id": "ZND",
            "Latitude": 13.77900028,
            "Longitude": 8.98375988
        },
        {
            "name": "Monastir Habib Bourguiba International Airport",
            "id": "MIR",
            "Latitude": 35.7580986,
            "Longitude": 10.75469971
        },
        {
            "name": "Tunis Carthage International Airport",
            "id": "TUN",
            "Latitude": 36.85100174,
            "Longitude": 10.22719955
        },
        {
            "name": "Gafsa Ksar International Airport",
            "id": "GAF",
            "Latitude": 34.42200089,
            "Longitude": 8.822500229
        },
        {
            "name": "Gabï¿½s Matmata International Airport",
            "id": "GAE",
            "Latitude": 33.87689972,
            "Longitude": 10.10330009
        },
        {
            "name": "Djerba Zarzis International Airport",
            "id": "DJE",
            "Latitude": 33.875,
            "Longitude": 10.7755003
        },
        {
            "name": "El Borma Airport",
            "id": "EBM",
            "Latitude": 31.70429993,
            "Longitude": 9.254619598
        },
        {
            "name": "Sfax Thyna International Airport",
            "id": "SFA",
            "Latitude": 34.7179985,
            "Longitude": 10.69099998
        },
        {
            "name": "Tozeur Nefta International Airport",
            "id": "TOE",
            "Latitude": 33.93970108,
            "Longitude": 8.110560417
        },
        {
            "name": "Niamtougou International Airport",
            "id": "LRL",
            "Latitude": 9.76733017,
            "Longitude": 1.091249943
        },
        {
            "name": "Lomï¿½-Tokoin Airport",
            "id": "LFW",
            "Latitude": 6.165609837,
            "Longitude": 1.254510045
        },
        {
            "name": "Antwerp International Airport (Deurne)",
            "id": "ANR",
            "Latitude": 51.18939972,
            "Longitude": 4.460279942
        },
        {
            "name": "Brussels Airport",
            "id": "BRU",
            "Latitude": 50.90140152,
            "Longitude": 4.48443985
        },
        {
            "name": "Brussels South Charleroi Airport",
            "id": "CRL",
            "Latitude": 50.459202,
            "Longitude": 4.45382
        },
        {
            "name": "Wevelgem Airport",
            "id": "KJK",
            "Latitude": 50.81719971,
            "Longitude": 3.20472002
        },
        {
            "name": "Liï¿½ge Airport",
            "id": "LGG",
            "Latitude": 50.63740158,
            "Longitude": 5.443220139
        },
        {
            "name": "Ostend-Bruges International Airport",
            "id": "OST",
            "Latitude": 51.19889832,
            "Longitude": 2.862220049
        },
        {
            "name": "Zoersel (Oostmalle) Airfield",
            "id": "OBL",
            "Latitude": 51.264702,
            "Longitude": 4.75333
        },
        {
            "name": "Altenburg-Nobitz Airport",
            "id": "AOC",
            "Latitude": 50.981945,
            "Longitude": 12.506389
        },
        {
            "name": "Riesa-Gï¿½hlis Airport",
            "id": "IES",
            "Latitude": 51.29360962,
            "Longitude": 13.35611057
        },
        {
            "name": "Rechlin-Lï¿½rz Airport",
            "id": "REB",
            "Latitude": 53.30638886,
            "Longitude": 12.75222206
        },
        {
            "name": "Schï¿½nhagen Airport",
            "id": "QXH",
            "Latitude": 52.203609,
            "Longitude": 13.156389
        },
        {
            "name": "Barth Airport",
            "id": "BBH",
            "Latitude": 54.338253,
            "Longitude": 12.710515
        },
        {
            "name": "Magdeburg \"City\" Airport",
            "id": "ZMG",
            "Latitude": 52.073612,
            "Longitude": 11.626389
        },
        {
            "name": "Cottbus-Drewitz Airport",
            "id": "CBU",
            "Latitude": 51.889442,
            "Longitude": 14.531944
        },
        {
            "name": "Berlin-Schï¿½nefeld Airport",
            "id": "SXF",
            "Latitude": 52.380001,
            "Longitude": 13.5225
        },
        {
            "name": "Dresden Airport",
            "id": "DRS",
            "Latitude": 51.13280106,
            "Longitude": 13.76720047
        },
        {
            "name": "Erfurt Airport",
            "id": "ERF",
            "Latitude": 50.97980118,
            "Longitude": 10.95810032
        },
        {
            "name": "Frankfurt am Main Airport",
            "id": "FRA",
            "Latitude": 50.033333,
            "Longitude": 8.570556
        },
        {
            "name": "Mï¿½nster Osnabrï¿½ck Airport",
            "id": "FMO",
            "Latitude": 52.13460159,
            "Longitude": 7.684830189
        },
        {
            "name": "Hamburg Airport",
            "id": "HAM",
            "Latitude": 53.63040161,
            "Longitude": 9.988229752
        },
        {
            "name": "Berlin-Tempelhof International Airport",
            "id": "THF",
            "Latitude": 52.47299957,
            "Longitude": 13.40390015
        },
        {
            "name": "Cologne Bonn Airport",
            "id": "CGN",
            "Latitude": 50.86589813,
            "Longitude": 7.142739773
        },
        {
            "name": "Dï¿½sseldorf Airport",
            "id": "DUS",
            "Latitude": 51.289501,
            "Longitude": 6.76678
        },
        {
            "name": "Munich Airport",
            "id": "MUC",
            "Latitude": 48.353802,
            "Longitude": 11.7861
        },
        {
            "name": "Nuremberg Airport",
            "id": "NUE",
            "Latitude": 49.498699,
            "Longitude": 11.078056
        },
        {
            "name": "Leipzig/Halle Airport",
            "id": "LEJ",
            "Latitude": 51.423889,
            "Longitude": 12.236389
        },
        {
            "name": "Saarbrï¿½cken Airport",
            "id": "SCN",
            "Latitude": 49.21459961,
            "Longitude": 7.109509945
        },
        {
            "name": "Stuttgart Airport",
            "id": "STR",
            "Latitude": 48.68989944,
            "Longitude": 9.221960068
        },
        {
            "name": "Berlin-Tegel Airport",
            "id": "TXL",
            "Latitude": 52.5597,
            "Longitude": 13.2877
        },
        {
            "name": "Hannover Airport",
            "id": "HAJ",
            "Latitude": 52.46110153,
            "Longitude": 9.685079575
        },
        {
            "name": "Bremen Airport",
            "id": "BRE",
            "Latitude": 53.04750061,
            "Longitude": 8.786669731
        },
        {
            "name": "Frankfurt-Egelsbach Airport",
            "id": "QEF",
            "Latitude": 49.959999,
            "Longitude": 8.645833
        },
        {
            "name": "Frankfurt-Hahn Airport",
            "id": "HHN",
            "Latitude": 49.9487,
            "Longitude": 7.26389
        },
        {
            "name": "Mannheim-City Airport",
            "id": "MHG",
            "Latitude": 49.473057,
            "Longitude": 8.514167
        },
        {
            "name": "Eisenach-Kindel Airport",
            "id": "EIB",
            "Latitude": 50.991604,
            "Longitude": 10.47973
        },
        {
            "name": "Siegerland Airport",
            "id": "SGE",
            "Latitude": 50.70769882,
            "Longitude": 8.082969666
        },
        {
            "name": "Hamburg-Finkenwerder Airport",
            "id": "XFW",
            "Latitude": 53.53527832,
            "Longitude": 9.83555603
        },
        {
            "name": "Kiel-Holtenau Airport",
            "id": "KEL",
            "Latitude": 54.37944412,
            "Longitude": 10.14527798
        },
        {
            "name": "Lï¿½beck Blankensee Airport",
            "id": "LBC",
            "Latitude": 53.80540085,
            "Longitude": 10.71920013
        },
        {
            "name": "Essen Mulheim Airport",
            "id": "ESS",
            "Latitude": 51.40230179,
            "Longitude": 6.937329769
        },
        {
            "name": "Bielefeld Airport",
            "id": "BFE",
            "Latitude": 51.964722,
            "Longitude": 8.544444
        },
        {
            "name": "Mï¿½nchengladbach Airport",
            "id": "MGL",
            "Latitude": 51.230278,
            "Longitude": 6.504444
        },
        {
            "name": "Paderborn Lippstadt Airport",
            "id": "PAD",
            "Latitude": 51.61410141,
            "Longitude": 8.616319656
        },
        {
            "name": "Dortmund Airport",
            "id": "DTM",
            "Latitude": 51.5182991,
            "Longitude": 7.612239838
        },
        {
            "name": "Augsburg Airport",
            "id": "AGB",
            "Latitude": 48.425278,
            "Longitude": 10.931667
        },
        {
            "name": "Oberpfaffenhofen Airport",
            "id": "OBF",
            "Latitude": 48.081402,
            "Longitude": 11.2831
        },
        {
            "name": "Straubing Airport",
            "id": "RBM",
            "Latitude": 48.90083313,
            "Longitude": 12.51666737
        },
        {
            "name": "Friedrichshafen Airport",
            "id": "FDH",
            "Latitude": 47.67129898,
            "Longitude": 9.511489868
        },
        {
            "name": "Schwerin Parchim Airport",
            "id": "SZW",
            "Latitude": 53.426998,
            "Longitude": 11.7834
        },
        {
            "name": "Bayreuth Airport",
            "id": "BYU",
            "Latitude": 49.985001,
            "Longitude": 11.64
        },
        {
            "name": "Burg Feuerstein Airport",
            "id": "URD",
            "Latitude": 49.79416656,
            "Longitude": 11.13361073
        },
        {
            "name": "Hof-Plauen Airport",
            "id": "HOQ",
            "Latitude": 50.28861237,
            "Longitude": 11.85638905
        },
        {
            "name": "Zweibrï¿½cken Airport",
            "id": "ZQW",
            "Latitude": 49.2094,
            "Longitude": 7.40056
        },
        {
            "name": "Donaueschingen-Villingen Airport",
            "id": "ZQL",
            "Latitude": 47.97333145,
            "Longitude": 8.522221565
        },
        {
            "name": "Braunschweig-Wolfsburg Airport",
            "id": "BWE",
            "Latitude": 52.319199,
            "Longitude": 10.5561
        },
        {
            "name": "Kassel-Calden Airport",
            "id": "KSF",
            "Latitude": 51.417273,
            "Longitude": 9.384967
        },
        {
            "name": "Bremerhaven Airport",
            "id": "BRV",
            "Latitude": 53.506943,
            "Longitude": 8.572778
        },
        {
            "name": "Emden Airport",
            "id": "EME",
            "Latitude": 53.391109,
            "Longitude": 7.2275
        },
        {
            "name": "Wilhelmshaven-Mariensiel Airport",
            "id": "WVN",
            "Latitude": 53.50222015,
            "Longitude": 8.052222252
        },
        {
            "name": "Borkum Airport",
            "id": "BMK",
            "Latitude": 53.59639,
            "Longitude": 6.709167
        },
        {
            "name": "Norderney Airport",
            "id": "NRD",
            "Latitude": 53.70694351,
            "Longitude": 7.230000019
        },
        {
            "name": "Flensburg-Schï¿½ferhaus Airport",
            "id": "FLF",
            "Latitude": 54.7733345,
            "Longitude": 9.378889084
        },
        {
            "name": "Westerland Sylt Airport",
            "id": "GWT",
            "Latitude": 54.91320038,
            "Longitude": 8.340470314
        },
        {
            "name": "Kï¿½rdla Airport",
            "id": "KDL",
            "Latitude": 58.99079895,
            "Longitude": 22.83069992
        },
        {
            "name": "Kuressaare Airport",
            "id": "URE",
            "Latitude": 58.22990036,
            "Longitude": 22.5095005
        },
        {
            "name": "Pï¿½rnu Airport",
            "id": "EPU",
            "Latitude": 58.41899872,
            "Longitude": 24.4727993
        },
        {
            "name": "Lennart Meri Tallinn Airport",
            "id": "TLL",
            "Latitude": 59.41329956,
            "Longitude": 24.83279991
        },
        {
            "name": "Tartu Airport",
            "id": "TAY",
            "Latitude": 58.30749893,
            "Longitude": 26.69039917
        },
        {
            "name": "Enontekio Airport",
            "id": "ENF",
            "Latitude": 68.36260223,
            "Longitude": 23.42429924
        },
        {
            "name": "Halli Airport",
            "id": "KEV",
            "Latitude": 61.856039,
            "Longitude": 24.786686
        },
        {
            "name": "Helsinki Malmi Airport",
            "id": "HEM",
            "Latitude": 60.25460052,
            "Longitude": 25.0428009
        },
        {
            "name": "Helsinki Vantaa Airport",
            "id": "HEL",
            "Latitude": 60.31719971,
            "Longitude": 24.9633007
        },
        {
            "name": "Hyvinkï¿½ï¿½ Airfield",
            "id": "HYV",
            "Latitude": 60.65439987,
            "Longitude": 24.8810997
        },
        {
            "name": "Kitee Airport",
            "id": "KTQ",
            "Latitude": 62.1661,
            "Longitude": 30.073601
        },
        {
            "name": "Ivalo Airport",
            "id": "IVL",
            "Latitude": 68.6072998,
            "Longitude": 27.40530014
        },
        {
            "name": "Joensuu Airport",
            "id": "JOE",
            "Latitude": 62.66289902,
            "Longitude": 29.60750008
        },
        {
            "name": "Jyvaskyla Airport",
            "id": "JYV",
            "Latitude": 62.3995018,
            "Longitude": 25.67830086
        },
        {
            "name": "Kauhava Airport",
            "id": "KAU",
            "Latitude": 63.127102,
            "Longitude": 23.051399
        },
        {
            "name": "Kemi-Tornio Airport",
            "id": "KEM",
            "Latitude": 65.77870178,
            "Longitude": 24.58209991
        },
        {
            "name": "Kajaani Airport",
            "id": "KAJ",
            "Latitude": 64.28549957,
            "Longitude": 27.69239998
        },
        {
            "name": "Kauhajoki Airport",
            "id": "KHJ",
            "Latitude": 62.46250153,
            "Longitude": 22.39310074
        },
        {
            "name": "Kokkola-Pietarsaari Airport",
            "id": "KOK",
            "Latitude": 63.72119904,
            "Longitude": 23.14310074
        },
        {
            "name": "Kuusamo Airport",
            "id": "KAO",
            "Latitude": 65.98760223,
            "Longitude": 29.23940086
        },
        {
            "name": "Kittilï¿½ Airport",
            "id": "KTT",
            "Latitude": 67.7009964,
            "Longitude": 24.84679985
        },
        {
            "name": "Kuopio Airport",
            "id": "KUO",
            "Latitude": 63.00709915,
            "Longitude": 27.79780006
        },
        {
            "name": "Lahti Vesivehmaa Airport",
            "id": "QLF",
            "Latitude": 61.144199,
            "Longitude": 25.693501
        },
        {
            "name": "Lappeenranta Airport",
            "id": "LPP",
            "Latitude": 61.044601,
            "Longitude": 28.144743
        },
        {
            "name": "Mariehamn Airport",
            "id": "MHQ",
            "Latitude": 60.12220001,
            "Longitude": 19.89819908
        },
        {
            "name": "Mikkeli Airport",
            "id": "MIK",
            "Latitude": 61.6866,
            "Longitude": 27.201799
        },
        {
            "name": "Oulu Airport",
            "id": "OUL",
            "Latitude": 64.93009949,
            "Longitude": 25.35460091
        },
        {
            "name": "Pori Airport",
            "id": "POR",
            "Latitude": 61.46170044,
            "Longitude": 21.79999924
        },
        {
            "name": "Rovaniemi Airport",
            "id": "RVN",
            "Latitude": 66.56479645,
            "Longitude": 25.83040047
        },
        {
            "name": "Savonlinna Airport",
            "id": "SVL",
            "Latitude": 61.94309998,
            "Longitude": 28.94510078
        },
        {
            "name": "Sodankyla Airport",
            "id": "SOT",
            "Latitude": 67.39499664,
            "Longitude": 26.61910057
        },
        {
            "name": "Tampere-Pirkkala Airport",
            "id": "TMP",
            "Latitude": 61.41410065,
            "Longitude": 23.60440063
        },
        {
            "name": "Turku Airport",
            "id": "TKU",
            "Latitude": 60.51409912,
            "Longitude": 22.26280022
        },
        {
            "name": "Utti Air Base",
            "id": "UTI",
            "Latitude": 60.89640045,
            "Longitude": 26.93840027
        },
        {
            "name": "Vaasa Airport",
            "id": "VAA",
            "Latitude": 63.05070114,
            "Longitude": 21.7621994
        },
        {
            "name": "Varkaus Airport",
            "id": "VRK",
            "Latitude": 62.17110062,
            "Longitude": 27.86860085
        },
        {
            "name": "Ylivieska Airfield",
            "id": "YLI",
            "Latitude": 64.0547222,
            "Longitude": 24.7252778
        },
        {
            "name": "Belfast International Airport",
            "id": "BFS",
            "Latitude": 54.65750122,
            "Longitude": -6.215829849
        },
        {
            "name": "St Angelo Airport",
            "id": "ENK",
            "Latitude": 54.39889908,
            "Longitude": -7.651669979
        },
        {
            "name": "George Best Belfast City Airport",
            "id": "BHD",
            "Latitude": 54.61809921,
            "Longitude": -5.872499943
        },
        {
            "name": "City of Derry Airport",
            "id": "LDY",
            "Latitude": 55.0428009,
            "Longitude": -7.161109924
        },
        {
            "name": "Birmingham International Airport",
            "id": "BHX",
            "Latitude": 52.45389938,
            "Longitude": -1.748029947
        },
        {
            "name": "Coventry Airport",
            "id": "CVT",
            "Latitude": 52.36970139,
            "Longitude": -1.479719996
        },
        {
            "name": "Gloucestershire Airport",
            "id": "GLO",
            "Latitude": 51.89419937,
            "Longitude": -2.167220116
        },
        {
            "name": "Cotswold Airport",
            "id": "GBA",
            "Latitude": 51.668095,
            "Longitude": -2.05694
        },
        {
            "name": "Manchester Airport",
            "id": "MAN",
            "Latitude": 53.35369873,
            "Longitude": -2.274950027
        },
        {
            "name": "Newquay Cornwall Airport",
            "id": "NQY",
            "Latitude": 50.44060135,
            "Longitude": -4.995409966
        },
        {
            "name": "RAF Lyneham",
            "id": "LYE",
            "Latitude": 51.5051,
            "Longitude": -1.99343
        },
        {
            "name": "RNAS Yeovilton",
            "id": "YEO",
            "Latitude": 51.00939941,
            "Longitude": -2.638819933
        },
        {
            "name": "Haverfordwest Airport",
            "id": "HAW",
            "Latitude": 51.83309937,
            "Longitude": -4.961110115
        },
        {
            "name": "Cardiff International Airport",
            "id": "CWL",
            "Latitude": 51.39670181,
            "Longitude": -3.343329906
        },
        {
            "name": "Swansea Airport",
            "id": "SWS",
            "Latitude": 51.6053009,
            "Longitude": -4.067830086
        },
        {
            "name": "Bristol Airport",
            "id": "BRS",
            "Latitude": 51.382702,
            "Longitude": -2.71909
        },
        {
            "name": "Liverpool John Lennon Airport",
            "id": "LPL",
            "Latitude": 53.33359909,
            "Longitude": -2.849720001
        },
        {
            "name": "London Luton Airport",
            "id": "LTN",
            "Latitude": 51.87469864,
            "Longitude": -0.368333012
        },
        {
            "name": "Plymouth City Airport",
            "id": "PLH",
            "Latitude": 50.422798,
            "Longitude": -4.10583
        },
        {
            "name": "Bournemouth Airport",
            "id": "BOH",
            "Latitude": 50.77999878,
            "Longitude": -1.842499971
        },
        {
            "name": "Southampton Airport",
            "id": "SOU",
            "Latitude": 50.95029831,
            "Longitude": -1.35679996
        },
        {
            "name": "Lasham Airport",
            "id": "QLA",
            "Latitude": 51.18719864,
            "Longitude": -1.033499956
        },
        {
            "name": "Alderney Airport",
            "id": "ACI",
            "Latitude": 49.706104,
            "Longitude": -2.21472
        },
        {
            "name": "Guernsey Airport",
            "id": "GCI",
            "Latitude": 49.43500137,
            "Longitude": -2.601969957
        },
        {
            "name": "Jersey Airport",
            "id": "JER",
            "Latitude": 49.207901,
            "Longitude": -2.195509911
        },
        {
            "name": "Shoreham Airport",
            "id": "ESH",
            "Latitude": 50.835602,
            "Longitude": -0.297222
        },
        {
            "name": "London Biggin Hill Airport",
            "id": "BQH",
            "Latitude": 51.3307991,
            "Longitude": 0.032499999
        },
        {
            "name": "London Gatwick Airport",
            "id": "LGW",
            "Latitude": 51.148102,
            "Longitude": -0.190278
        },
        {
            "name": "London City Airport",
            "id": "LCY",
            "Latitude": 51.505299,
            "Longitude": 0.055278
        },
        {
            "name": "Farnborough Airport",
            "id": "FAB",
            "Latitude": 51.2757988,
            "Longitude": -0.776332974
        },
        {
            "name": "Blackbushe Airport",
            "id": "BBS",
            "Latitude": 51.32389832,
            "Longitude": -0.847500026
        },
        {
            "name": "London Heathrow Airport",
            "id": "LHR",
            "Latitude": 51.4706,
            "Longitude": -0.461941
        },
        {
            "name": "Southend Airport",
            "id": "SEN",
            "Latitude": 51.57139969,
            "Longitude": 0.695555985
        },
        {
            "name": "Lydd Airport",
            "id": "LYX",
            "Latitude": 50.95610046,
            "Longitude": 0.939167023
        },
        {
            "name": "Kent International Airport",
            "id": "MSE",
            "Latitude": 51.342201,
            "Longitude": 1.34611
        },
        {
            "name": "Carlisle Airport",
            "id": "CAX",
            "Latitude": 54.9375,
            "Longitude": -2.809170008
        },
        {
            "name": "Blackpool International Airport",
            "id": "BLK",
            "Latitude": 53.77170181,
            "Longitude": -3.028609991
        },
        {
            "name": "Humberside Airport",
            "id": "HUY",
            "Latitude": 53.57440186,
            "Longitude": -0.350832999
        },
        {
            "name": "Barrow Walney Island Airport",
            "id": "BWF",
            "Latitude": 54.1286111,
            "Longitude": -3.2675
        },
        {
            "name": "Leeds Bradford Airport",
            "id": "LBA",
            "Latitude": 53.86589813,
            "Longitude": -1.660570025
        },
        {
            "name": "Warton Airport",
            "id": "WRT",
            "Latitude": 53.745098,
            "Longitude": -2.88306
        },
        {
            "name": "Hawarden Airport",
            "id": "CEG",
            "Latitude": 53.17810059,
            "Longitude": -2.977780104
        },
        {
            "name": "Isle of Man Airport",
            "id": "IOM",
            "Latitude": 54.08330154,
            "Longitude": -4.623889923
        },
        {
            "name": "Newcastle Airport",
            "id": "NCL",
            "Latitude": 55.03749847,
            "Longitude": -1.691669941
        },
        {
            "name": "Durham Tees Valley Airport",
            "id": "MME",
            "Latitude": 54.50920105,
            "Longitude": -1.429409981
        },
        {
            "name": "East Midlands Airport",
            "id": "EMA",
            "Latitude": 52.83110046,
            "Longitude": -1.328060031
        },
        {
            "name": "Kirkwall Airport",
            "id": "KOI",
            "Latitude": 58.95780182,
            "Longitude": -2.904999971
        },
        {
            "name": "Sumburgh Airport",
            "id": "LSI",
            "Latitude": 59.87889862,
            "Longitude": -1.295560002
        },
        {
            "name": "Wick Airport",
            "id": "WIC",
            "Latitude": 58.45890045,
            "Longitude": -3.093060017
        },
        {
            "name": "Aberdeen Dyce Airport",
            "id": "ABZ",
            "Latitude": 57.20190048,
            "Longitude": -2.197779894
        },
        {
            "name": "Inverness Airport",
            "id": "INV",
            "Latitude": 57.54249954,
            "Longitude": -4.047500134
        },
        {
            "name": "Glasgow International Airport",
            "id": "GLA",
            "Latitude": 55.87189865,
            "Longitude": -4.433060169
        },
        {
            "name": "Edinburgh Airport",
            "id": "EDI",
            "Latitude": 55.95000076,
            "Longitude": -3.372499943
        },
        {
            "name": "Islay Airport",
            "id": "ILY",
            "Latitude": 55.68190002,
            "Longitude": -6.256669998
        },
        {
            "name": "Glasgow Prestwick Airport",
            "id": "PIK",
            "Latitude": 55.50939941,
            "Longitude": -4.586669922
        },
        {
            "name": "Benbecula Airport",
            "id": "BEB",
            "Latitude": 57.48109818,
            "Longitude": -7.362780094
        },
        {
            "name": "Scatsta Airport",
            "id": "SCS",
            "Latitude": 60.43280029,
            "Longitude": -1.296110034
        },
        {
            "name": "Dundee Airport",
            "id": "DND",
            "Latitude": 56.45249939,
            "Longitude": -3.02583003
        },
        {
            "name": "Stornoway Airport",
            "id": "SYY",
            "Latitude": 58.21559906,
            "Longitude": -6.331110001
        },
        {
            "name": "Tiree Airport",
            "id": "TRE",
            "Latitude": 56.49919891,
            "Longitude": -6.869170189
        },
        {
            "name": "RAF Leuchars",
            "id": "ADX",
            "Latitude": 56.3728981,
            "Longitude": -2.868439913
        },
        {
            "name": "RAF Lossiemouth",
            "id": "LMO",
            "Latitude": 57.7052002,
            "Longitude": -3.339169979
        },
        {
            "name": "Cambridge Airport",
            "id": "CBG",
            "Latitude": 52.205002,
            "Longitude": 0.175
        },
        {
            "name": "Norwich International Airport",
            "id": "NWI",
            "Latitude": 52.67580032,
            "Longitude": 1.282780051
        },
        {
            "name": "London Stansted Airport",
            "id": "STN",
            "Latitude": 51.88499832,
            "Longitude": 0.234999999
        },
        {
            "name": "Exeter International Airport",
            "id": "EXT",
            "Latitude": 50.7344017,
            "Longitude": -3.413889885
        },
        {
            "name": "Bristol Filton Airport",
            "id": "FZO",
            "Latitude": 51.51940155,
            "Longitude": -2.590830088
        },
        {
            "name": "Oxford (Kidlington) Airport",
            "id": "OXF",
            "Latitude": 51.8368988,
            "Longitude": -1.320000052
        },
        {
            "name": "RAF Benson",
            "id": "BEX",
            "Latitude": 51.61640167,
            "Longitude": -1.095829964
        },
        {
            "name": "RAF Lakenheath",
            "id": "LKZ",
            "Latitude": 52.40930176,
            "Longitude": 0.56099999
        },
        {
            "name": "RAF Mildenhall",
            "id": "MHZ",
            "Latitude": 52.36190033,
            "Longitude": 0.486405998
        },
        {
            "name": "RAF Wyton",
            "id": "QUY",
            "Latitude": 52.35720062,
            "Longitude": -0.107832998
        },
        {
            "name": "RAF Fairford",
            "id": "FFD",
            "Latitude": 51.68220139,
            "Longitude": -1.790030003
        },
        {
            "name": "RAF Brize Norton",
            "id": "BZZ",
            "Latitude": 51.75,
            "Longitude": -1.58362
        },
        {
            "name": "RAF Odiham",
            "id": "ODH",
            "Latitude": 51.23410034,
            "Longitude": -0.942825019
        },
        {
            "name": "RAF Northolt",
            "id": "NHT",
            "Latitude": 51.5530014,
            "Longitude": -0.418166995
        },
        {
            "name": "RAF Coningsby",
            "id": "QCY",
            "Latitude": 53.0929985,
            "Longitude": -0.166014001
        },
        {
            "name": "RAF Honington",
            "id": "BEQ",
            "Latitude": 52.34260178,
            "Longitude": 0.772939026
        },
        {
            "name": "RAF Scampton",
            "id": "SQZ",
            "Latitude": 53.30780029,
            "Longitude": -0.550832987
        },
        {
            "name": "RAF Linton-On-Ouse",
            "id": "HRT",
            "Latitude": 54.0489006,
            "Longitude": -1.252750039
        },
        {
            "name": "RAF Waddington",
            "id": "WTN",
            "Latitude": 53.16619873,
            "Longitude": -0.523810983
        },
        {
            "name": "RAF Marham",
            "id": "KNF",
            "Latitude": 52.648395,
            "Longitude": 0.550692
        },
        {
            "name": "Mount Pleasant Airport",
            "id": "MPN",
            "Latitude": -51.82279968,
            "Longitude": -58.44720078
        },
        {
            "name": "Amsterdam Airport Schiphol",
            "id": "AMS",
            "Latitude": 52.308601,
            "Longitude": 4.76389
        },
        {
            "name": "Maastricht Aachen Airport",
            "id": "MST",
            "Latitude": 50.911701,
            "Longitude": 5.77014
        },
        {
            "name": "Eindhoven Airport",
            "id": "EIN",
            "Latitude": 51.45009995,
            "Longitude": 5.374529839
        },
        {
            "name": "Eelde Airport",
            "id": "GRQ",
            "Latitude": 53.11970139,
            "Longitude": 6.579440117
        },
        {
            "name": "Gilze Rijen Air Base",
            "id": "GLZ",
            "Latitude": 51.56740189,
            "Longitude": 4.931829929
        },
        {
            "name": "De Kooy Airport",
            "id": "DHR",
            "Latitude": 52.92340088,
            "Longitude": 4.780620098
        },
        {
            "name": "Lelystad Airport",
            "id": "LEY",
            "Latitude": 52.4603,
            "Longitude": 5.52722
        },
        {
            "name": "Leeuwarden Air Base",
            "id": "LWR",
            "Latitude": 53.22859955,
            "Longitude": 5.760560036
        },
        {
            "name": "Rotterdam The Hague Airport",
            "id": "RTM",
            "Latitude": 51.956902,
            "Longitude": 4.43722
        },
        {
            "name": "Soesterberg Air Base",
            "id": "UTC",
            "Latitude": 52.12730026,
            "Longitude": 5.276189804
        },
        {
            "name": "Twente Airport",
            "id": "ENS",
            "Latitude": 52.275833,
            "Longitude": 6.889167
        },
        {
            "name": "Valkenburg Naval Air Base",
            "id": "LID",
            "Latitude": 52.16609955,
            "Longitude": 4.41794014
        },
        {
            "name": "Woensdrecht Air Base",
            "id": "WOE",
            "Latitude": 51.4491,
            "Longitude": 4.34203
        },
        {
            "name": "Cork Airport",
            "id": "ORK",
            "Latitude": 51.84130096,
            "Longitude": -8.491109848
        },
        {
            "name": "Galway Airport",
            "id": "GWY",
            "Latitude": 53.30020142,
            "Longitude": -8.941590309
        },
        {
            "name": "Dublin Airport",
            "id": "DUB",
            "Latitude": 53.421299,
            "Longitude": -6.27007
        },
        {
            "name": "Ireland West Knock Airport",
            "id": "NOC",
            "Latitude": 53.91030121,
            "Longitude": -8.818490028
        },
        {
            "name": "Kerry Airport",
            "id": "KIR",
            "Latitude": 52.18090057,
            "Longitude": -9.523779869
        },
        {
            "name": "Shannon Airport",
            "id": "SNN",
            "Latitude": 52.702,
            "Longitude": -8.92482
        },
        {
            "name": "Sligo Airport",
            "id": "SXL",
            "Latitude": 54.28020096,
            "Longitude": -8.599209785
        },
        {
            "name": "Waterford Airport",
            "id": "WAT",
            "Latitude": 52.18719864,
            "Longitude": -7.086959839
        },
        {
            "name": "Aarhus Airport",
            "id": "AAR",
            "Latitude": 56.29999924,
            "Longitude": 10.61900043
        },
        {
            "name": "Billund Airport",
            "id": "BLL",
            "Latitude": 55.74029922,
            "Longitude": 9.151780128
        },
        {
            "name": "Copenhagen Kastrup Airport",
            "id": "CPH",
            "Latitude": 55.61790085,
            "Longitude": 12.65600014
        },
        {
            "name": "Esbjerg Airport",
            "id": "EBJ",
            "Latitude": 55.525902,
            "Longitude": 8.5534
        },
        {
            "name": "Karup Airport",
            "id": "KRP",
            "Latitude": 56.29750061,
            "Longitude": 9.124629974
        },
        {
            "name": "Lï¿½sï¿½ Airport",
            "id": "BYR",
            "Latitude": 57.27719879,
            "Longitude": 11.00010014
        },
        {
            "name": "Lolland Falster Maribo Airport",
            "id": "MRW",
            "Latitude": 54.699299,
            "Longitude": 11.4401
        },
        {
            "name": "Odense Airport",
            "id": "ODE",
            "Latitude": 55.47669983,
            "Longitude": 10.33090019
        },
        {
            "name": "Copenhagen Roskilde Airport",
            "id": "RKE",
            "Latitude": 55.58560181,
            "Longitude": 12.13140011
        },
        {
            "name": "Bornholm Airport",
            "id": "RNN",
            "Latitude": 55.06330109,
            "Longitude": 14.75959969
        },
        {
            "name": "Sï¿½nderborg Airport",
            "id": "SGD",
            "Latitude": 54.96440125,
            "Longitude": 9.791729927
        },
        {
            "name": "Skrydstrup Air Base",
            "id": "SKS",
            "Latitude": 55.221048,
            "Longitude": 9.26702
        },
        {
            "name": "Skive Airport",
            "id": "SQW",
            "Latitude": 56.55020142,
            "Longitude": 9.172980309
        },
        {
            "name": "Thisted Airport",
            "id": "TED",
            "Latitude": 57.06880188,
            "Longitude": 8.705220222
        },
        {
            "name": "Vagar Airport",
            "id": "FAE",
            "Latitude": 62.06359863,
            "Longitude": -7.277219772
        },
        {
            "name": "Stauning Airport",
            "id": "STA",
            "Latitude": 55.99010086,
            "Longitude": 8.353910446
        },
        {
            "name": "Aalborg Airport",
            "id": "AAL",
            "Latitude": 57.09275891,
            "Longitude": 9.849243164
        },
        {
            "name": "Luxembourg-Findel International Airport",
            "id": "LUX",
            "Latitude": 49.6233333,
            "Longitude": 6.2044444
        },
        {
            "name": "ï¿½lesund Airport",
            "id": "AES",
            "Latitude": 62.5625,
            "Longitude": 6.119699955
        },
        {
            "name": "Andï¿½ya Airport",
            "id": "ANX",
            "Latitude": 69.29250336,
            "Longitude": 16.14419937
        },
        {
            "name": "Alta Airport",
            "id": "ALF",
            "Latitude": 69.97609711,
            "Longitude": 23.37170029
        },
        {
            "name": "Brï¿½nnï¿½ysund Airport",
            "id": "BNN",
            "Latitude": 65.46109772,
            "Longitude": 12.21749973
        },
        {
            "name": "Bodï¿½ Airport",
            "id": "BOO",
            "Latitude": 67.26920319,
            "Longitude": 14.36530018
        },
        {
            "name": "Bergen Airport Flesland",
            "id": "BGO",
            "Latitude": 60.29339981,
            "Longitude": 5.218140125
        },
        {
            "name": "Bï¿½tsfjord Airport",
            "id": "BJF",
            "Latitude": 70.60050201,
            "Longitude": 29.69140053
        },
        {
            "name": "Kristiansand Airport",
            "id": "KRS",
            "Latitude": 58.204201,
            "Longitude": 8.08537
        },
        {
            "name": "Geilo Airport Dagali",
            "id": "DLD",
            "Latitude": 60.41730118,
            "Longitude": 8.518349648
        },
        {
            "name": "Bardufoss Airport",
            "id": "BDU",
            "Latitude": 69.05580139,
            "Longitude": 18.54039955
        },
        {
            "name": "Harstad/Narvik Airport, Evenes",
            "id": "EVE",
            "Latitude": 68.49130249,
            "Longitude": 16.67810059
        },
        {
            "name": "Leirin Airport",
            "id": "VDB",
            "Latitude": 61.0155983,
            "Longitude": 9.288060188
        },
        {
            "name": "Florï¿½ Airport",
            "id": "FRO",
            "Latitude": 61.58359909,
            "Longitude": 5.024720192
        },
        {
            "name": "Oslo Lufthavn",
            "id": "OSL",
            "Latitude": 60.121,
            "Longitude": 11.0502
        },
        {
            "name": "Haugesund Airport",
            "id": "HAU",
            "Latitude": 59.34529877,
            "Longitude": 5.208360195
        },
        {
            "name": "Hasvik Airport",
            "id": "HAA",
            "Latitude": 70.48670197,
            "Longitude": 22.13969994
        },
        {
            "name": "Kristiansund Airport (Kvernberget)",
            "id": "KSU",
            "Latitude": 63.11180115,
            "Longitude": 7.824520111
        },
        {
            "name": "Kirkenes Airport (Hï¿½ybuktmoen)",
            "id": "KKN",
            "Latitude": 69.72579956,
            "Longitude": 29.8913002
        },
        {
            "name": "Lista Airport",
            "id": "FAN",
            "Latitude": 58.09949875,
            "Longitude": 6.626049995
        },
        {
            "name": "Molde Airport",
            "id": "MOL",
            "Latitude": 62.74470139,
            "Longitude": 7.262499809
        },
        {
            "name": "Mosjï¿½en Airport (Kjï¿½rstad)",
            "id": "MJF",
            "Latitude": 65.78399658,
            "Longitude": 13.21490002
        },
        {
            "name": "Banak Airport",
            "id": "LKL",
            "Latitude": 70.06880188,
            "Longitude": 24.9734993
        },
        {
            "name": "Notodden Airport",
            "id": "NTB",
            "Latitude": 59.565701,
            "Longitude": 9.21222
        },
        {
            "name": "ï¿½rland Airport",
            "id": "OLA",
            "Latitude": 63.69889832,
            "Longitude": 9.604000092
        },
        {
            "name": "Rï¿½ros Airport",
            "id": "RRS",
            "Latitude": 62.57839966,
            "Longitude": 11.34230042
        },
        {
            "name": "Moss Airport, Rygge",
            "id": "RYG",
            "Latitude": 59.378817,
            "Longitude": 10.785439
        },
        {
            "name": "Svalbard Airport, Longyear",
            "id": "LYR",
            "Latitude": 78.24610138,
            "Longitude": 15.46560001
        },
        {
            "name": "Skien Airport",
            "id": "SKE",
            "Latitude": 59.18500137,
            "Longitude": 9.566940308
        },
        {
            "name": "Stord Airport",
            "id": "SRP",
            "Latitude": 59.79190063,
            "Longitude": 5.340849876
        },
        {
            "name": "Sandnessjï¿½en Airport (Stokka)",
            "id": "SSJ",
            "Latitude": 65.95680237,
            "Longitude": 12.46889973
        },
        {
            "name": "Tromsï¿½ Airport,",
            "id": "TOS",
            "Latitude": 69.6832962,
            "Longitude": 18.91889954
        },
        {
            "name": "Sandefjord Airport, Torp",
            "id": "TRF",
            "Latitude": 59.18669891,
            "Longitude": 10.25860024
        },
        {
            "name": "Trondheim Airport Vï¿½rnes",
            "id": "TRD",
            "Latitude": 63.4578018,
            "Longitude": 10.9239998
        },
        {
            "name": "Stavanger Airport Sola",
            "id": "SVG",
            "Latitude": 58.87670135,
            "Longitude": 5.63778019
        },
        {
            "name": "Gdansk Lech Walesa Airport",
            "id": "GDN",
            "Latitude": 54.37760162,
            "Longitude": 18.46619987
        },
        {
            "name": "Krakï¿½w John Paul II International Airport",
            "id": "KRK",
            "Latitude": 50.077702,
            "Longitude": 19.7848
        },
        {
            "name": "Katowice International Airport",
            "id": "KTW",
            "Latitude": 50.4743,
            "Longitude": 19.08
        },
        {
            "name": "Poznan-Lawica Airport",
            "id": "POZ",
            "Latitude": 52.42100143,
            "Longitude": 16.82629967
        },
        {
            "name": "Rzeszï¿½w-Jasionka Airport",
            "id": "RZE",
            "Latitude": 50.11000061,
            "Longitude": 22.0189991
        },
        {
            "name": "Szczecin-Goleniï¿½w \"Solidarnosc\" Airport",
            "id": "SZZ",
            "Latitude": 53.58470154,
            "Longitude": 14.90219975
        },
        {
            "name": "Redzikowo Air Base",
            "id": "OSP",
            "Latitude": 54.47890091,
            "Longitude": 17.10750008
        },
        {
            "name": "Warsaw Chopin Airport",
            "id": "WAW",
            "Latitude": 52.16569901,
            "Longitude": 20.96710014
        },
        {
            "name": "Copernicus Wroclaw Airport",
            "id": "WRO",
            "Latitude": 51.10269928,
            "Longitude": 16.88579941
        },
        {
            "name": "Zielona Gï¿½ra-Babimost Airport",
            "id": "IEG",
            "Latitude": 52.13850021,
            "Longitude": 15.7986002
        },
        {
            "name": "Ronneby Airport",
            "id": "RNB",
            "Latitude": 56.26670074,
            "Longitude": 15.26500034
        },
        {
            "name": "Gothenburg-Landvetter Airport",
            "id": "GOT",
            "Latitude": 57.66279984,
            "Longitude": 12.27980042
        },
        {
            "name": "Jï¿½nkï¿½ping Airport",
            "id": "JKG",
            "Latitude": 57.75759888,
            "Longitude": 14.06869984
        },
        {
            "name": "Lidkï¿½ping-Hovby Airport",
            "id": "LDK",
            "Latitude": 58.4655,
            "Longitude": 13.1744
        },
        {
            "name": "Gothenburg City Airport",
            "id": "GSE",
            "Latitude": 57.7747,
            "Longitude": 11.8704
        },
        {
            "name": "Skï¿½vde Airport",
            "id": "KVB",
            "Latitude": 58.45640182,
            "Longitude": 13.97270012
        },
        {
            "name": "Trollhï¿½ttan-Vï¿½nersborg Airport",
            "id": "THN",
            "Latitude": 58.31809998,
            "Longitude": 12.34500027
        },
        {
            "name": "Karlskoga Airport",
            "id": "KSK",
            "Latitude": 59.34590149,
            "Longitude": 14.49590015
        },
        {
            "name": "Mora Airport",
            "id": "MXX",
            "Latitude": 60.957901,
            "Longitude": 14.5114
        },
        {
            "name": "Stockholm Skavsta Airport",
            "id": "NYO",
            "Latitude": 58.78860092,
            "Longitude": 16.91220093
        },
        {
            "name": "Kristianstad Airport",
            "id": "KID",
            "Latitude": 55.92169952,
            "Longitude": 14.08549976
        },
        {
            "name": "Oskarshamn Airport",
            "id": "OSK",
            "Latitude": 57.350498,
            "Longitude": 16.497999
        },
        {
            "name": "Kalmar Airport",
            "id": "KLR",
            "Latitude": 56.6855011,
            "Longitude": 16.28759956
        },
        {
            "name": "Malmï¿½ Sturup Airport",
            "id": "MMX",
            "Latitude": 55.53630536,
            "Longitude": 13.37619781
        },
        {
            "name": "Halmstad Airport",
            "id": "HAD",
            "Latitude": 56.69110107,
            "Longitude": 12.82019997
        },
        {
            "name": "Vï¿½xjï¿½ Kronoberg Airport",
            "id": "VXO",
            "Latitude": 56.92910004,
            "Longitude": 14.72799969
        },
        {
            "name": "Sveg Airport",
            "id": "EVG",
            "Latitude": 62.04779816,
            "Longitude": 14.4229002
        },
        {
            "name": "Gï¿½llivare Airport",
            "id": "GEV",
            "Latitude": 67.13240051,
            "Longitude": 20.81459999
        },
        {
            "name": "Hudiksvall Airport",
            "id": "HUV",
            "Latitude": 61.76810074,
            "Longitude": 17.08069992
        },
        {
            "name": "Kramfors Sollefteï¿½ Airport",
            "id": "KRF",
            "Latitude": 63.04859924,
            "Longitude": 17.76889992
        },
        {
            "name": "Lycksele Airport",
            "id": "LYC",
            "Latitude": 64.5483017,
            "Longitude": 18.71619987
        },
        {
            "name": "Sundsvall-Hï¿½rnï¿½sand Airport",
            "id": "SDL",
            "Latitude": 62.52809906,
            "Longitude": 17.44389915
        },
        {
            "name": "ï¿½rnskï¿½ldsvik Airport",
            "id": "OER",
            "Latitude": 63.40829849,
            "Longitude": 18.98999977
        },
        {
            "name": "Kiruna Airport",
            "id": "KRN",
            "Latitude": 67.8219986,
            "Longitude": 20.33679962
        },
        {
            "name": "Skellefteï¿½ Airport",
            "id": "SFT",
            "Latitude": 64.62480164,
            "Longitude": 21.07690048
        },
        {
            "name": "Umeï¿½ Airport",
            "id": "UME",
            "Latitude": 63.79180145,
            "Longitude": 20.28280067
        },
        {
            "name": "Vilhelmina Airport",
            "id": "VHM",
            "Latitude": 64.57910156,
            "Longitude": 16.83359909
        },
        {
            "name": "Arvidsjaur Airport",
            "id": "AJR",
            "Latitude": 65.59030151,
            "Longitude": 19.28190041
        },
        {
            "name": "ï¿½rebro Airport",
            "id": "ORB",
            "Latitude": 59.22370148,
            "Longitude": 15.03800011
        },
        {
            "name": "Stockholm Vï¿½sterï¿½s Airport",
            "id": "VST",
            "Latitude": 59.58940125,
            "Longitude": 16.63360023
        },
        {
            "name": "Luleï¿½ Airport",
            "id": "LLA",
            "Latitude": 65.54380035,
            "Longitude": 22.12199974
        },
        {
            "name": "Stockholm-Arlanda Airport",
            "id": "ARN",
            "Latitude": 59.65190125,
            "Longitude": 17.91860008
        },
        {
            "name": "Stockholm-Bromma Airport",
            "id": "BMA",
            "Latitude": 59.35440063,
            "Longitude": 17.94169998
        },
        {
            "name": "Borlange Airport",
            "id": "BLE",
            "Latitude": 60.42200089,
            "Longitude": 15.51519966
        },
        {
            "name": "Hultsfred Airport",
            "id": "HLF",
            "Latitude": 57.525799,
            "Longitude": 15.8233
        },
        {
            "name": "Gï¿½vle Sandviken Airport",
            "id": "GVX",
            "Latitude": 60.59329987,
            "Longitude": 16.95140076
        },
        {
            "name": "Linkï¿½ping City Airport",
            "id": "LPI",
            "Latitude": 58.40620041,
            "Longitude": 15.68050003
        },
        {
            "name": "Norrkï¿½ping Airport",
            "id": "NRK",
            "Latitude": 58.5862999,
            "Longitude": 16.25060081
        },
        {
            "name": "Eskilstuna Airport",
            "id": "EKT",
            "Latitude": 59.35110092,
            "Longitude": 16.70840073
        },
        {
            "name": "Visby Airport",
            "id": "VBY",
            "Latitude": 57.66279984,
            "Longitude": 18.34620094
        },
        {
            "name": "Spangdahlem Air Base",
            "id": "SPM",
            "Latitude": 49.97269821,
            "Longitude": 6.692500114
        },
        {
            "name": "Ramstein Air Base",
            "id": "RMS",
            "Latitude": 49.43690109,
            "Longitude": 7.600279808
        },
        {
            "name": "[Duplicate] Giebelstadt Army Air Field",
            "id": "GHF",
            "Latitude": 49.64810181,
            "Longitude": 9.966489792
        },
        {
            "name": "Celle Airport",
            "id": "ZCN",
            "Latitude": 52.59120178,
            "Longitude": 10.02210045
        },
        {
            "name": "Fritzlar Airport",
            "id": "FRZ",
            "Latitude": 51.1146,
            "Longitude": 9.286
        },
        {
            "name": "Hanau Army Air Field",
            "id": "ZNF",
            "Latitude": 50.169201,
            "Longitude": 8.96159
        },
        {
            "name": "Flugplatz Kitzingen",
            "id": "KZG",
            "Latitude": 49.743099,
            "Longitude": 10.2006
        },
        {
            "name": "Nordholz Naval Airbase",
            "id": "FCN",
            "Latitude": 53.7677002,
            "Longitude": 8.658499718
        },
        {
            "name": "Geilenkirchen Air Base",
            "id": "GKE",
            "Latitude": 50.9608,
            "Longitude": 6.04242
        },
        {
            "name": "Rostock-Laage Airport",
            "id": "RLG",
            "Latitude": 53.91820145,
            "Longitude": 12.27830029
        },
        {
            "name": "Schleswig Air Base",
            "id": "WBG",
            "Latitude": 54.459301,
            "Longitude": 9.51633
        },
        {
            "name": "Wiesbaden Army Airfield",
            "id": "WIE",
            "Latitude": 50.04980087,
            "Longitude": 8.325400352
        },
        {
            "name": "Fï¿½rstenfeldbruck Air Base",
            "id": "FEL",
            "Latitude": 48.205555,
            "Longitude": 11.266944
        },
        {
            "name": "Ingolstadt Manching Airport",
            "id": "IGS",
            "Latitude": 48.71569824,
            "Longitude": 11.5340004
        },
        {
            "name": "Gï¿½tersloh Air Base",
            "id": "GUT",
            "Latitude": 51.922798,
            "Longitude": 8.30633
        },
        {
            "name": "Alexander Bay Airport",
            "id": "ALJ",
            "Latitude": -28.575001,
            "Longitude": 16.5333
        },
        {
            "name": "Aggeneys Airport",
            "id": "AGZ",
            "Latitude": -29.28179932,
            "Longitude": 18.81389999
        },
        {
            "name": "Bisho Airport",
            "id": "BIY",
            "Latitude": -32.89709854,
            "Longitude": 27.27910042
        },
        {
            "name": "Bram Fischer International Airport",
            "id": "BFN",
            "Latitude": -29.09269905,
            "Longitude": 26.30240059
        },
        {
            "name": "Cape Town International Airport",
            "id": "CPT",
            "Latitude": -33.96480179,
            "Longitude": 18.60169983
        },
        {
            "name": "King Shaka International Airport",
            "id": "DUR",
            "Latitude": -29.61444444,
            "Longitude": 31.11972222
        },
        {
            "name": "Ben Schoeman Airport",
            "id": "ELS",
            "Latitude": -33.03559875,
            "Longitude": 27.82589912
        },